{"type":"FeatureCollection","features":[
{"type":"Feature","geometry":{"type":"Point","coordinates":[113.264385,23.12911]},"properties":{"ID":1,"UrbArea":"Pearl River Delta urban area","CityName":"Guangzhou","Lat":23.12911,"Long":113.264385,"Country":"China","Landkm2000":4477.5625,"Landkm2010":6969,"Increase":2491.4375,"AvgYrInc":4.523244,"Urbpop2000":26835836,"Urbpop2010":41757816,"urbpopchg":14921980,"avyrgpopch":4.520689,"dens2000":5993.402884,"dens210":5991.938011,"expPpers":166.96427, "cx":472.8935,"cy":273.6583}},
{"type":"Feature","geometry":{"type":"Point","coordinates":[139.691706,35.689487]},"properties":{"ID":2,"UrbArea":"Tokyo urban area","CityName":"Tokyo","Lat":35.689487,"Long":139.691706,"Country":"Japan","Landkm2000":5434,"Landkm2010":5569.6875,"Increase":135.6875,"AvgYrInc":0.246939,"Urbpop2000":27695526,"Urbpop2010":31788261,"urbpopchg":4092735,"avyrgpopch":1.387804,"dens2000":5096.71071,"dens210":5707.36886,"expPpers":33.153258, "cx":779.6975 ,"cy":127.6801}},
{"type":"Feature","geometry":{"type":"Point","coordinates":[121.473701,31.230416]},"properties":{"ID":3,"UrbArea":"Shanghai urban area","CityName":"Shanghai","Lat":31.230416,"Long":121.473701,"Country":"China","Landkm2000":1605.1875,"Landkm2010":3482,"Increase":1876.8125,"AvgYrInc":8.051375,"Urbpop2000":14020969,"Urbpop2010":24196318,"urbpopchg":10175349,"avyrgpopch":5.608075,"dens2000":8734.785812,"dens210":6948.971281,"expPpers":184.44699, "cx":568.1983 ,"cy":179.504}},
{"type":"Feature","geometry":{"type":"Point","coordinates":[106.845599,-6.208763]},"properties":{"ID":4,"UrbArea":"Jakarta urban area","CityName":"Jakarta","Lat":-6.208763,"Long":106.845599,"Country":"Indonesia","Landkm2000":1338.25,"Landkm2010":1600.1875,"Increase":261.9375,"AvgYrInc":1.803653,"Urbpop2000":16291976,"Urbpop2010":23431674,"urbpopchg":7139698,"avyrgpopch":3.701003,"dens2000":12174.090043,"dens210":14643.080264,"expPpers":36.687476, "cx":398.3756 ,"cy":614.6266}},
{"type":"Feature","geometry":{"type":"Point","coordinates":[116.407395,39.904211]},"properties":{"ID":5,"UrbArea":"Beijing urban area","CityName":"Beijing","Lat":39.904211,"Long":116.407395,"Country":"China","Landkm2000":1826.875,"Landkm2010":2716.0625,"Increase":889.1875,"AvgYrInc":4.04545,"Urbpop2000":10754014,"Urbpop2010":16707094,"urbpopchg":5953080,"avyrgpopch":4.504028,"dens2000":5886.562573,"dens210":6151.218538,"expPpers":149.365958, "cx":509.3818 ,"cy":78.6961}},
{"type":"Feature","geometry":{"type":"Point","coordinates":[120.984219,14.599512]},"properties":{"ID":6,"UrbArea":"Manila urban area","CityName":"Manila","Lat":14.599512,"Long":120.984219,"Country":"Philippines","Landkm2000":1024.0625,"Landkm2010":1275,"Increase":250.9375,"AvgYrInc":2.21588,"Urbpop2000":12202314,"Urbpop2010":16521948,"urbpopchg":4319634,"avyrgpopch":3.077032,"dens2000":11915.594995,"dens210":12958.390588,"expPpers":58.092306, "cx":562.5157 ,"cy":372.7903}},
{"type":"Feature","geometry":{"type":"Point","coordinates":[126.977969,37.566535]},"properties":{"ID":7,"UrbArea":"Seoul urban area","CityName":"Seoul","Lat":37.566535,"Long":126.977969,"Country":"Republic of Korea","Landkm2000":1067.25,"Landkm2010":1191.5625,"Increase":124.3125,"AvgYrInc":1.107894,"Urbpop2000":14277211,"Urbpop2010":15898238,"urbpopchg":1621027,"avyrgpopch":1.08124,"dens2000":13377.569454,"dens210":13342.34503,"expPpers":76.687495, "cx":632.0993 ,"cy":105.8649}},
{"type":"Feature","geometry":{"type":"Point","coordinates":[135.502165,34.693738]},"properties":{"ID":8,"UrbArea":"Osaka urban area","CityName":"Osaka","Lat":34.693738,"Long":135.502165,"Country":"Japan","Landkm2000":2047.1875,"Landkm2010":2072.5625,"Increase":25.375,"AvgYrInc":0.123265,"Urbpop2000":10637811,"Urbpop2010":12273967,"urbpopchg":1636156,"avyrgpopch":1.440941,"dens2000":5196.305175,"dens210":5922.121528,"expPpers":15.508912, "cx":731.0596 ,"cy":139.2528}},
{"type":"Feature","geometry":{"type":"Point","coordinates":[100.501765,13.756331]},"properties":{"ID":9,"UrbArea":"Bangkok urban area","CityName":"Bangkok","Lat":13.756331,"Long":100.501765,"Country":"Thailand","Landkm2000":1909.8125,"Landkm2010":2125.9375,"Increase":216.125,"AvgYrInc":1.077845,"Urbpop2000":7825880,"Urbpop2010":9555372,"urbpopchg":1729492,"avyrgpopch":2.01674,"dens2000":4097.721635,"dens210":4494.662708,"expPpers":124.96444, "cx":324.7278 ,"cy":382.5899}},
{"type":"Feature","geometry":{"type":"Point","coordinates":[117.200983,39.084158]},"properties":{"ID":10,"UrbArea":"Tianjin urban area","CityName":"Tianjin","Lat":39.084158,"Long":117.200983,"Country":"China","Landkm2000":1126.75,"Landkm2010":1654.8125,"Increase":528.0625,"AvgYrInc":3.918321,"Urbpop2000":6266363,"Urbpop2010":8788168,"urbpopchg":2521805,"avyrgpopch":3.439945,"dens2000":5561.449301,"dens210":5310.672961,"expPpers":209.398625, "cx":518.5948 ,"cy":88.2269}},
{"type":"Feature","geometry":{"type":"Point","coordinates":[116.681972,23.354091]},"properties":{"ID":11,"UrbArea":"Shantou urban area","CityName":"Shantou","Lat":23.354091,"Long":116.681972,"Country":"China","Landkm2000":980.375,"Landkm2010":1207.3125,"Increase":226.9375,"AvgYrInc":2.103998,"Urbpop2000":6692103,"Urbpop2010":8458895,"urbpopchg":1766792,"avyrgpopch":2.370565,"dens2000":6826.064516,"dens210":7006.384014,"expPpers":128.446076, "cx":512.5695 ,"cy":271.0436}},
{"type":"Feature","geometry":{"type":"Point","coordinates":[104.066541,30.572269]},"properties":{"ID":12,"UrbArea":"Chengdu urban area","CityName":"Chengdu","Lat":30.572269,"Long":104.066541,"Country":"China","Landkm2000":605.0625,"Landkm2010":1068.875,"Increase":463.8125,"AvgYrInc":5.855315,"Urbpop2000":4636284,"Urbpop2010":8323450,"urbpopchg":3687166,"avyrgpopch":6.026234,"dens2000":7662.48776,"dens210":7787.112618,"expPpers":125.791055, "cx":366.1125 ,"cy":187.153}},
{"type":"Feature","geometry":{"type":"Point","coordinates":[106.629664,10.823099]},"properties":{"ID":13,"UrbArea":"Ho Chi Minh City urban area","CityName":"Ho Chi Minh City","Lat":10.823099,"Long":106.629664,"Country":"Vietnam","Landkm2000":549,"Landkm2010":814.625,"Increase":265.625,"AvgYrInc":4.025195,"Urbpop2000":5309190,"Urbpop2010":7761835,"urbpopchg":2452645,"avyrgpopch":3.870833,"dens2000":9670.655738,"dens210":9528.108025,"expPpers":108.301446, "cx":395.8687 ,"cy":416.6802}},
{"type":"Feature","geometry":{"type":"Point","coordinates":[136.906398,35.181446]},"properties":{"ID":14,"UrbArea":"Nagoya urban area","CityName":"Nagoya","Lat":35.181446,"Long":136.906398,"Country":"Japan","Landkm2000":1772.0625,"Landkm2010":1882,"Increase":109.9375,"AvgYrInc":0.603724,"Urbpop2000":6368802,"Urbpop2010":7426344,"urbpopchg":1057542,"avyrgpopch":1.548084,"dens2000":3594.00529,"dens210":3945.985122,"expPpers":103.955682, "cx":747.3619 ,"cy":133.5846}},
{"type":"Feature","geometry":{"type":"Point","coordinates":[114.305393,30.593099]},"properties":{"ID":15,"UrbArea":"Wuhan urban area","CityName":"Wuhan","Lat":30.593099,"Long":114.305393,"Country":"China","Landkm2000":713.125,"Landkm2010":945.125,"Increase":232,"AvgYrInc":2.856646,"Urbpop2000":5474500,"Urbpop2010":7342134,"urbpopchg":1867634,"avyrgpopch":2.97879,"dens2000":7676.774759,"dens210":7768.426399,"expPpers":124.221341, "cx":484.9789 ,"cy":186.911}},
{"type":"Feature","geometry":{"type":"Point","coordinates":[114.109497,22.396428]},"properties":{"ID":16,"UrbArea":"Hong Kong SAR urban area","CityName":"Hong Kong","Lat":22.396428,"Long":114.109497,"Country":"China","Landkm2000":200.5625,"Landkm2010":218.625,"Increase":18.0625,"AvgYrInc":0.866049,"Urbpop2000":6665000,"Urbpop2010":7024200,"urbpopchg":359200,"avyrgpopch":0.526294,"dens2000":33231.536304,"dens210":32128.987993,"expPpers":50.285356, "cx":482.7047 ,"cy":282.1736}},
{"type":"Feature","geometry":{"type":"Point","coordinates":[107.619123,-6.917464]},"properties":{"ID":17,"UrbArea":"Bandung urban area","CityName":"Bandung","Lat":-6.917464,"Long":107.619123,"Country":"Indonesia","Landkm2000":433.4375,"Landkm2010":511.875,"Increase":78.4375,"AvgYrInc":1.677239,"Urbpop2000":4797409,"Urbpop2010":6946592,"urbpopchg":2149183,"avyrgpopch":3.77112,"dens2000":11068.283201,"dens210":13570.875702,"expPpers":36.496427, "cx":407.3557 ,"cy":622.8632}},
{"type":"Feature","geometry":{"type":"Point","coordinates":[123.431472,41.805699]},"properties":{"ID":18,"UrbArea":"Shenyang urban area","CityName":"Shenyang","Lat":41.805699,"Long":123.431472,"Country":"China","Landkm2000":815.75,"Landkm2010":1034.75,"Increase":219,"AvgYrInc":2.406574,"Urbpop2000":5842383,"Urbpop2010":6904495,"urbpopchg":1062112,"avyrgpopch":1.684367,"dens2000":7161.977321,"dens210":6672.621406,"expPpers":206.192944, "cx":590.9268 ,"cy":56.5968}},
{"type":"Feature","geometry":{"type":"Point","coordinates":[121.565418,25.032969]},"properties":{"ID":19,"UrbArea":"Taipei City urban area","CityName":"Taipei","Lat":25.032969,"Long":121.565418,"Country":"Taiwan, China","Landkm2000":477.125,"Landkm2010":587.1875,"Increase":110.0625,"AvgYrInc":2.097348,"Urbpop2000":6203242,"Urbpop2010":6640562,"urbpopchg":437320,"avyrgpopch":0.683571,"dens2000":13001.293162,"dens210":11309.099734,"expPpers":251.674975, "cx":569.2631 ,"cy":251.5314}},
{"type":"Feature","geometry":{"type":"Point","coordinates":[120.15507,30.274085]},"properties":{"ID":20,"UrbArea":"Hangzhou urban area","CityName":"Hangzhou","Lat":30.274085,"Long":120.15507,"Country":"China","Landkm2000":518,"Landkm2010":1318.3125,"Increase":800.3125,"AvgYrInc":9.791536,"Urbpop2000":3464101,"Urbpop2010":6386447,"urbpopchg":2922346,"avyrgpopch":6.308227,"dens2000":6687.453668,"dens210":4844.410563,"expPpers":273.859598, "cx":552.8899 ,"cy":190.6186}},
{"type":"Feature","geometry":{"type":"Point","coordinates":[112.752088,-7.257472]},"properties":{"ID":21,"UrbArea":"Surabaya urban area","CityName":"Surabaya","Lat":-7.257472,"Long":112.752088,"Country":"Indonesia","Landkm2000":644.3125,"Landkm2010":725.875,"Increase":81.5625,"AvgYrInc":1.199072,"Urbpop2000":4395779,"Urbpop2010":6104808,"urbpopchg":1709029,"avyrgpopch":3.338848,"dens2000":6822.433214,"dens210":8410.274496,"expPpers":47.724468, "cx":466.9461 ,"cy":626.8148}},
{"type":"Feature","geometry":{"type":"Point","coordinates":[101.686855,3.139003]},"properties":{"ID":22,"UrbArea":"Kuala Lumpur urban area","CityName":"Kuala Lumpur","Lat":3.139003,"Long":101.686855,"Country":"Malaysia","Landkm2000":1540.5625,"Landkm2010":1739.25,"Increase":198.6875,"AvgYrInc":1.220451,"Urbpop2000":3972896,"Urbpop2010":5750078,"urbpopchg":1777182,"avyrgpopch":3.766377,"dens2000":2578.860643,"dens210":3306.067558,"expPpers":111.799185, "cx":338.4859 ,"cy":505.9857}},
{"type":"Feature","geometry":{"type":"Point","coordinates":[108.940175,34.341568]},"properties":{"ID":23,"UrbArea":"Xi'an urban area","CityName":"Xi'an","Lat":34.341568,"Long":108.940175,"Country":"China","Landkm2000":475.5625,"Landkm2010":735.375,"Increase":259.8125,"AvgYrInc":4.455215,"Urbpop2000":4187660,"Urbpop2010":5736306,"urbpopchg":1548646,"avyrgpopch":3.196767,"dens2000":8805.698515,"dens210":7800.518103,"expPpers":167.767521, "cx":422.6922 ,"cy":143.3458}},
{"type":"Feature","geometry":{"type":"Point","coordinates":[105.83416,21.027764]},"properties":{"ID":24,"UrbArea":"Ha Noi urban area","CityName":"Ha Noi","Lat":21.027764,"Long":105.83416,"Country":"Vietnam","Landkm2000":584.3125,"Landkm2010":850.5625,"Increase":266.25,"AvgYrInc":3.825996,"Urbpop2000":3534648,"Urbpop2010":5642882,"urbpopchg":2108234,"avyrgpopch":4.788948,"dens2000":6049.242486,"dens210":6634.294364,"expPpers":126.290535, "cx":386.6334 ,"cy":298.0804}},
{"type":"Feature","geometry":{"type":"Point","coordinates":[106.551557,29.56301]},"properties":{"ID":25,"UrbArea":"Chongqing urban area","CityName":"Chongqing","Lat":29.56301,"Long":106.551557,"Country":"China","Landkm2000":327.625,"Landkm2010":592.625,"Increase":265,"AvgYrInc":6.106086,"Urbpop2000":3347836,"Urbpop2010":5035794,"urbpopchg":1687958,"avyrgpopch":4.167053,"dens2000":10218.499809,"dens210":8497.437671,"expPpers":156.994428, "cx":394.9619 ,"cy":198.8828}},
{"type":"Feature","geometry":{"type":"Point","coordinates":[118.675676,24.874132]},"properties":{"ID":26,"UrbArea":"Quanzhou urban area","CityName":"Quanzhou","Lat":24.874132,"Long":118.675676,"Country":"China","Landkm2000":642.9375,"Landkm2010":924,"Increase":281.0625,"AvgYrInc":3.693211,"Urbpop2000":3451403,"Urbpop2010":4789766,"urbpopchg":1338363,"avyrgpopch":3.331293,"dens2000":5368.178089,"dens210":5183.729437,"expPpers":210.004685, "cx":535.7151 ,"cy":253.3775}},
{"type":"Feature","geometry":{"type":"Point","coordinates":[118.796877,32.060255]},"properties":{"ID":27,"UrbArea":"Nanjing urban area","CityName":"Nanjing","Lat":32.060255,"Long":118.796877,"Country":"China","Landkm2000":240.5,"Landkm2010":448.25,"Increase":207.75,"AvgYrInc":6.424231,"Urbpop2000":2837423,"Urbpop2010":4505328,"urbpopchg":1667905,"avyrgpopch":4.732202,"dens2000":11798.016632,"dens210":10050.926938,"expPpers":124.557454, "cx":537.1221 ,"cy":169.8595}},
{"type":"Feature","geometry":{"type":"Point","coordinates":[118.089425,24.479834]},"properties":{"ID":28,"UrbArea":"Xiamen urban area","CityName":"Xiamen","Lat":24.479834,"Long":118.089425,"Country":"China","Landkm2000":493.4375,"Landkm2010":777.25,"Increase":283.8125,"AvgYrInc":4.648464,"Urbpop2000":2342286,"Urbpop2010":4267814,"urbpopchg":1925528,"avyrgpopch":6.183383,"dens2000":4746.874731,"dens210":5490.915407,"expPpers":147.394637, "cx":528.9091 ,"cy":257.96}},
{"type":"Feature","geometry":{"type":"Point","coordinates":[112.548879,37.87059]},"properties":{"ID":29,"UrbArea":"Taiyuan urban area","CityName":"Taiyuan","Lat":37.87059,"Long":112.548879,"Country":"China","Landkm2000":560.9375,"Landkm2010":727.8125,"Increase":166.875,"AvgYrInc":2.638549,"Urbpop2000":3162224,"Urbpop2010":4243100,"urbpopchg":1080876,"avyrgpopch":2.983836,"dens2000":5637.390975,"dens210":5829.935595,"expPpers":154.388663, "cx":464.5869 ,"cy":102.3311}},
{"type":"Feature","geometry":{"type":"Point","coordinates":[120.382612,36.067117]},"properties":{"ID":30,"UrbArea":"Qingdao urban area","CityName":"Qingdao","Lat":36.067117,"Long":120.382612,"Country":"China","Landkm2000":689.875,"Landkm2010":804,"Increase":114.125,"AvgYrInc":1.542667,"Urbpop2000":3253798,"Urbpop2010":4163504,"urbpopchg":909706,"avyrgpopch":2.495982,"dens2000":4716.503714,"dens210":5178.487562,"expPpers":125.452619, "cx":555.5315 ,"cy":123.2913}},
{"type":"Feature","geometry":{"type":"Point","coordinates":[98.672223,3.595196]},"properties":{"ID":31,"UrbArea":"Medan urban area","CityName":"Medan","Lat":3.595196,"Long":98.672223,"Country":"Indonesia","Landkm2000":437.5,"Landkm2010":455.625,"Increase":18.125,"AvgYrInc":0.406759,"Urbpop2000":2909037,"Urbpop2010":3929132,"urbpopchg":1020095,"avyrgpopch":3.0516,"dens2000":6649.227429,"dens210":8623.609328,"expPpers":17.767953, "cx":303.488 ,"cy":500.6838}},
{"type":"Feature","geometry":{"type":"Point","coordinates":[126.534967,45.803775]},"properties":{"ID":32,"UrbArea":"Harbin urban area","CityName":"Harbin","Lat":45.803775,"Long":126.534967,"Country":"China","Landkm2000":445.9375,"Landkm2010":532.5,"Increase":86.5625,"AvgYrInc":1.78987,"Urbpop2000":2842427,"Urbpop2010":3809061,"urbpopchg":966634,"avyrgpopch":2.970509,"dens2000":6374.047933,"dens210":7153.166197,"expPpers":89.55044, "cx":626.9563 ,"cy":10.1307}},
{"type":"Feature","geometry":{"type":"Point","coordinates":[113.625805,34.747041]},"properties":{"ID":33,"UrbArea":"Zhengzhou urban area","CityName":"Zhengzhou","Lat":34.747041,"Long":113.625805,"Country":"China","Landkm2000":243.6875,"Landkm2010":404.25,"Increase":160.5625,"AvgYrInc":5.191749,"Urbpop2000":1993042,"Urbpop2010":3805762,"urbpopchg":1812720,"avyrgpopch":6.682336,"dens2000":8178.679661,"dens210":9414.377242,"expPpers":88.575456, "cx":477.0893 ,"cy":138.6334}},
{"type":"Feature","geometry":{"type":"Point","coordinates":[112.938814,28.228209]},"properties":{"ID":34,"UrbArea":"Changsha urban area","CityName":"Changsha","Lat":28.228209,"Long":112.938814,"Country":"China","Landkm2000":249.375,"Landkm2010":444,"Increase":194.625,"AvgYrInc":5.938302,"Urbpop2000":2233013,"Urbpop2010":3680654,"urbpopchg":1447641,"avyrgpopch":5.124362,"dens2000":8954.438095,"dens210":8289.761261,"expPpers":134.442863, "cx":469.1138 ,"cy":214.396}},
{"type":"Feature","geometry":{"type":"Point","coordinates":[117.227239,31.820587]},"properties":{"ID":35,"UrbArea":"Hefei urban area","CityName":"Hefei","Lat":31.820587,"Long":117.227239,"Country":"China","Landkm2000":217.3125,"Landkm2010":405.5,"Increase":188.1875,"AvgYrInc":6.436507,"Urbpop2000":1677081,"Urbpop2010":3623909,"urbpopchg":1946828,"avyrgpopch":8.009592,"dens2000":7717.370147,"dens210":8936.890259,"expPpers":96.66365, "cx":518.8997 ,"cy":172.6449}},
{"type":"Feature","geometry":{"type":"Point","coordinates":[122.994329,41.108647]},"properties":{"ID":36,"UrbArea":"Anshan urban area","CityName":"Anshan","Lat":41.108647,"Long":122.994329,"Country":"China","Landkm2000":718.0625,"Landkm2010":847.75,"Increase":129.6875,"AvgYrInc":1.674151,"Urbpop2000":3242167,"Urbpop2010":3494160,"urbpopchg":251993,"avyrgpopch":0.751319,"dens2000":4515.159892,"dens210":4121.686818,"expPpers":514.647232, "cx":585.8518 ,"cy":64.698}},
{"type":"Feature","geometry":{"type":"Point","coordinates":[121.614682,38.914003]},"properties":{"ID":37,"UrbArea":"Dalian urban area","CityName":"Dalian","Lat":38.914003,"Long":121.614682,"Country":"China","Landkm2000":493.25,"Landkm2010":550.3125,"Increase":57.0625,"AvgYrInc":1.100715,"Urbpop2000":2737479,"Urbpop2010":3488541,"urbpopchg":751062,"avyrgpopch":2.454091,"dens2000":5549.881399,"dens210":6339.2,"expPpers":75.975752, "cx":569.835 ,"cy":90.2044}},
{"type":"Feature","geometry":{"type":"Point","coordinates":[125.323544,43.817072]},"properties":{"ID":38,"UrbArea":"Changchun urban area","CityName":"Changchun","Lat":43.817072,"Long":125.323544,"Country":"China","Landkm2000":613.5625,"Landkm2010":767,"Increase":153.4375,"AvgYrInc":2.257143,"Urbpop2000":2489821,"Urbpop2010":3477619,"urbpopchg":987798,"avyrgpopch":3.397821,"dens2000":4057.974534,"dens210":4534.053455,"expPpers":155.332872, "cx":612.8925 ,"cy":33.2204}},
{"type":"Feature","geometry":{"type":"Point","coordinates":[96.149722,16.780833]},"properties":{"ID":39,"UrbArea":"Yangon City urban area","CityName":"Yangon","Lat":16.780833,"Long":96.149722,"Country":"Myanmar","Landkm2000":370.75,"Landkm2010":389.5625,"Increase":18.8125,"AvgYrInc":0.49619,"Urbpop2000":2637028,"Urbpop2010":3416962,"urbpopchg":779934,"avyrgpopch":2.624851,"dens2000":7112.685098,"dens210":8771.280603,"expPpers":24.120631, "cx":274.2034 ,"cy":347.4387}},
{"type":"Feature","geometry":{"type":"Point","coordinates":[103.819836,1.352083]},"properties":{"ID":40,"UrbArea":"Singapore urban area","CityName":"Singapore","Lat":1.352083,"Long":103.819836,"Country":"Singapore","Landkm2000":337.25,"Landkm2010":403.5,"Increase":66.25,"AvgYrInc":1.8097,"Urbpop2000":2539073,"Urbpop2010":3412239,"urbpopchg":873166,"avyrgpopch":2.99981,"dens2000":7528.756116,"dens210":8456.60223,"expPpers":75.873316, "cx":363.2484 ,"cy":526.7535}},
{"type":"Feature","geometry":{"type":"Point","coordinates":[114.51486,38.042307]},"properties":{"ID":41,"UrbArea":"Shijiazhuang urban area","CityName":"Shijiazhuang","Lat":38.042307,"Long":114.51486,"Country":"China","Landkm2000":446.625,"Landkm2010":495.875,"Increase":49.25,"AvgYrInc":1.051536,"Urbpop2000":2606693,"Urbpop2010":3384804,"urbpopchg":778111,"avyrgpopch":2.646552,"dens2000":5836.424293,"dens210":6825.921855,"expPpers":63.294311, "cx":487.4107 ,"cy":100.3354}},
{"type":"Feature","geometry":{"type":"Point","coordinates":[119.296494,26.074508]},"properties":{"ID":42,"UrbArea":"Fuzhou urban area","CityName":"Fuzhou","Lat":26.074508,"Long":119.296494,"Country":"China","Landkm2000":368.25,"Landkm2010":524.5,"Increase":156.25,"AvgYrInc":3.600124,"Urbpop2000":2421588,"Urbpop2010":3380510,"urbpopchg":958922,"avyrgpopch":3.3923,"dens2000":6575.934827,"dens210":6445.204957,"expPpers":162.943389, "cx":542.9224 ,"cy":239.4266}},
{"type":"Feature","geometry":{"type":"Point","coordinates":[102.832892,24.880095]},"properties":{"ID":43,"UrbArea":"Kunming urban area","CityName":"Kunming","Lat":24.880095,"Long":102.832892,"Country":"China","Landkm2000":307.375,"Landkm2010":445,"Increase":137.625,"AvgYrInc":3.769362,"Urbpop2000":2295856,"Urbpop2010":3158163,"urbpopchg":862307,"avyrgpopch":3.240236,"dens2000":7469.234648,"dens210":7096.995506,"expPpers":159.600931, "cx":351.7907 ,"cy":253.3082}},
{"type":"Feature","geometry":{"type":"Point","coordinates":[129.075642,35.179554]},"properties":{"ID":44,"UrbArea":"Busan urban area","CityName":"Busan","Lat":35.179554,"Long":129.075642,"Country":"Republic of Korea","Landkm2000":240.125,"Landkm2010":275.1875,"Increase":35.0625,"AvgYrInc":1.372261,"Urbpop2000":2832947,"Urbpop2010":3132865,"urbpopchg":299918,"avyrgpopch":1.011384,"dens2000":11797.801145,"dens210":11384.474222,"expPpers":116.906955, "cx":656.4519 ,"cy":133.6066}},
{"type":"Feature","geometry":{"type":"Point","coordinates":[117.12,36.651216]},"properties":{"ID":45,"UrbArea":"Jinan urban area","CityName":"Jinan","Lat":36.651216,"Long":117.12,"Country":"China","Landkm2000":256.5625,"Landkm2010":304.5625,"Increase":48,"AvgYrInc":1.729831,"Urbpop2000":2255667,"Urbpop2010":2952471,"urbpopchg":696804,"avyrgpopch":2.728528,"dens2000":8791.881121,"dens210":9694.138313,"expPpers":68.885942, "cx":517.6547 ,"cy":116.5028}},
{"type":"Feature","geometry":{"type":"Point","coordinates":[120.699367,27.994267]},"properties":{"ID":46,"UrbArea":"Wenzhou urban area","CityName":"Wenzhou","Lat":27.994267,"Long":120.699367,"Country":"China","Landkm2000":205.375,"Landkm2010":299,"Increase":93.625,"AvgYrInc":3.827491,"Urbpop2000":1693733,"Urbpop2010":2920413,"urbpopchg":1226680,"avyrgpopch":5.599031,"dens2000":8247.026172,"dens210":9767.267559,"expPpers":76.323899, "cx":559.2088 ,"cy":217.1149}},
{"type":"Feature","geometry":{"type":"Point","coordinates":[110.416667,-6.966667]},"properties":{"ID":47,"UrbArea":"Semarang urban area","CityName":"Semarang","Lat":-6.966667,"Long":110.416667,"Country":"Indonesia","Landkm2000":329.125,"Landkm2010":364.875,"Increase":35.75,"AvgYrInc":1.036507,"Urbpop2000":2025802,"Urbpop2010":2857742,"urbpopchg":831940,"avyrgpopch":3.500537,"dens2000":6155.114318,"dens210":7832.112367,"expPpers":42.971849, "cx":439.8333 ,"cy":623.435}},
{"type":"Feature","geometry":{"type":"Point","coordinates":[120.31191,31.49117]},"properties":{"ID":48,"UrbArea":"Wuxi urban area","CityName":"Wuxi","Lat":31.49117,"Long":120.31191,"Country":"China","Landkm2000":227.875,"Landkm2010":489,"Increase":261.125,"AvgYrInc":7.934732,"Urbpop2000":1713658,"Urbpop2010":2808589,"urbpopchg":1094931,"avyrgpopch":5.064598,"dens2000":7520.166758,"dens210":5743.535787,"expPpers":238.485347, "cx":554.7107 ,"cy":176.4735}},
{"type":"Feature","geometry":{"type":"Point","coordinates":[121.54399,29.868336]},"properties":{"ID":49,"UrbArea":"Ningbo urban area","CityName":"Ningbo","Lat":29.868336,"Long":121.54399,"Country":"China","Landkm2000":309.875,"Landkm2010":629.8125,"Increase":319.9375,"AvgYrInc":7.350105,"Urbpop2000":1552379,"Urbpop2010":2752235,"urbpopchg":1199856,"avyrgpopch":5.893371,"dens2000":5009.694232,"dens210":4369.927558,"expPpers":266.646581, "cx":569.0143 ,"cy":195.3342}},
{"type":"Feature","geometry":{"type":"Point","coordinates":[120.301435,22.627278]},"properties":{"ID":50,"UrbArea":"Kaohsiung urban area","CityName":"Kaohsiung","Lat":22.627278,"Long":120.301435,"Country":"Taiwan, China","Landkm2000":383.8125,"Landkm2010":400.0625,"Increase":16.25,"AvgYrInc":0.415527,"Urbpop2000":2623091,"Urbpop2010":2719206,"urbpopchg":96115,"avyrgpopch":0.360514,"dens2000":6834.303208,"dens210":6796.952976,"expPpers":169.068304, "cx":554.5891 ,"cy":279.4907}},
{"type":"Feature","geometry":{"type":"Point","coordinates":[119.974062,31.811226]},"properties":{"ID":51,"UrbArea":"Changzhou urban area","CityName":"Changzhou","Lat":31.811226,"Long":119.974062,"Country":"China","Landkm2000":204.875,"Landkm2010":477.1875,"Increase":272.3125,"AvgYrInc":8.822828,"Urbpop2000":1578729,"Urbpop2010":2698018,"urbpopchg":1119289,"avyrgpopch":5.505166,"dens2000":7705.815741,"dens210":5653.999738,"expPpers":243.290607, "cx":550.7885 ,"cy":172.7537}},
{"type":"Feature","geometry":{"type":"Point","coordinates":[115.858198,28.682892]},"properties":{"ID":52,"UrbArea":"Nanchang urban area","CityName":"Nanchang","Lat":28.682892,"Long":115.858198,"Country":"China","Landkm2000":231.5,"Landkm2010":337.3125,"Increase":105.8125,"AvgYrInc":3.836046,"Urbpop2000":1726117,"Urbpop2010":2496129,"urbpopchg":770012,"avyrgpopch":3.757543,"dens2000":7456.228942,"dens210":7400.048916,"expPpers":137.41669, "cx":503.006 ,"cy":209.1116}},
{"type":"Feature","geometry":{"type":"Point","coordinates":[87.616848,43.825592]},"properties":{"ID":53,"UrbArea":"Urumqi urban area","CityName":"Urumqi","Lat":43.825592,"Long":87.616848,"Country":"China","Landkm2000":325.875,"Landkm2010":466.0625,"Increase":140.1875,"AvgYrInc":3.642842,"Urbpop2000":1634389,"Urbpop2010":2460166,"urbpopchg":825777,"avyrgpopch":4.174374,"dens2000":5015.386268,"dens210":5278.618211,"expPpers":169.764355, "cx":175.1423 ,"cy":33.1214}},
{"type":"Feature","geometry":{"type":"Point","coordinates":[118.054927,36.813487]},"properties":{"ID":54,"UrbArea":"Zibo urban area","CityName":"Zibo","Lat":36.813487,"Long":118.054927,"Country":"China","Landkm2000":453.3125,"Landkm2010":507.9375,"Increase":54.625,"AvgYrInc":1.144264,"Urbpop2000":1985469,"Urbpop2010":2320662,"urbpopchg":335193,"avyrgpopch":1.572204,"dens2000":4379.912312,"dens210":4568.794389,"expPpers":162.965814, "cx":528.5086 ,"cy":114.6169}},
{"type":"Feature","geometry":{"type":"Point","coordinates":[121.420757,28.656386]},"properties":{"ID":55,"UrbArea":"Taizhou urban area","CityName":"Taizhou","Lat":28.656386,"Long":121.420757,"Country":"China","Landkm2000":174.875,"Landkm2010":369.875,"Increase":195,"AvgYrInc":7.778646,"Urbpop2000":1378319,"Urbpop2010":2285429,"urbpopchg":907110,"avyrgpopch":5.186935,"dens2000":7881.738385,"dens210":6178.922609,"expPpers":214.968416, "cx":567.5837 ,"cy":209.4197}},
{"type":"Feature","geometry":{"type":"Point","coordinates":[112.632632,-7.96662]},"properties":{"ID":56,"UrbArea":"Malang urban area","CityName":"Malang","Lat":-7.96662,"Long":112.632632,"Country":"Indonesia","Landkm2000":249.9375,"Landkm2010":265,"Increase":15.0625,"AvgYrInc":0.586905,"Urbpop2000":1635664,"Urbpop2010":2242804,"urbpopchg":607140,"avyrgpopch":3.207135,"dens2000":6544.292073,"dens210":8463.411321,"expPpers":24.80894, "cx":465.5593 ,"cy":635.0566}},
{"type":"Feature","geometry":{"type":"Point","coordinates":[103.834304,36.061089]},"properties":{"ID":57,"UrbArea":"Lanzhou urban area","CityName":"Lanzhou","Lat":36.061089,"Long":103.834304,"Country":"China","Landkm2000":163.3125,"Landkm2010":193.5,"Increase":30.1875,"AvgYrInc":1.710585,"Urbpop2000":1618504,"Urbpop2010":2179529,"urbpopchg":561025,"avyrgpopch":3.020793,"dens2000":9910.472254,"dens210":11263.715762,"expPpers":53.807763, "cx":363.4164 ,"cy":123.3613}},
{"type":"Feature","geometry":{"type":"Point","coordinates":[113.926975,35.302928]},"properties":{"ID":58,"UrbArea":"Xinxiang urban area","CityName":"Xinxiang","Lat":35.302928,"Long":113.926975,"Country":"China","Landkm2000":334.6875,"Landkm2010":396.3125,"Increase":61.625,"AvgYrInc":1.70442,"Urbpop2000":1775110,"Urbpop2010":2137221,"urbpopchg":362111,"avyrgpopch":1.873779,"dens2000":5303.78338,"dens210":5392.767071,"expPpers":170.182624, "cx":480.5857 ,"cy":132.1728}},
{"type":"Feature","geometry":{"type":"Point","coordinates":[110.816667,-7.566667]},"properties":{"ID":59,"UrbArea":"Surakarta urban area","CityName":"Surakarta","Lat":-7.566667,"Long":110.816667,"Country":"Indonesia","Landkm2000":376.125,"Landkm2010":378.5,"Increase":2.375,"AvgYrInc":0.062965,"Urbpop2000":1589226,"Urbpop2010":2125451,"urbpopchg":536225,"avyrgpopch":2.950046,"dens2000":4225.260219,"dens210":5615.458388,"expPpers":4.429111, "cx":444.4771 ,"cy":630.4083}},
{"type":"Feature","geometry":{"type":"Point","coordinates":[109.125592,-6.879704]},"properties":{"ID":60,"UrbArea":"Tegal urban area","CityName":"Tegal","Lat":-6.879704,"Long":109.125592,"Country":"Indonesia","Landkm2000":215.8125,"Landkm2010":248.4375,"Increase":32.625,"AvgYrInc":1.41777,"Urbpop2000":1433025,"Urbpop2010":2106735,"urbpopchg":673710,"avyrgpopch":3.928729,"dens2000":6640.13901,"dens210":8479.939623,"expPpers":48.425881, "cx":424.8448 ,"cy":622.4243}},
{"type":"Feature","geometry":{"type":"Point","coordinates":[106.630154,26.647661]},"properties":{"ID":61,"UrbArea":"Guiyang urban area","CityName":"Guiyang","Lat":26.647661,"Long":106.630154,"Country":"China","Landkm2000":106.4375,"Landkm2010":150.375,"Increase":43.9375,"AvgYrInc":3.516147,"Urbpop2000":1482035,"Urbpop2010":2104868,"urbpopchg":622833,"avyrgpopch":3.570635,"dens2000":13923.992954,"dens210":13997.459684,"expPpers":70.544592, "cx":395.8744 ,"cy":232.7653}},
{"type":"Feature","geometry":{"type":"Point","coordinates":[118.180194,39.630867]},"properties":{"ID":62,"UrbArea":"Tangshan urban area","CityName":"Tangshan","Lat":39.630867,"Long":118.180194,"Country":"China","Landkm2000":421.375,"Landkm2010":525.3125,"Increase":103.9375,"AvgYrInc":2.229185,"Urbpop2000":1836665,"Urbpop2010":2103384,"urbpopchg":266719,"avyrgpopch":1.365195,"dens2000":4358.742213,"dens210":4004.062344,"expPpers":389.689149, "cx":529.9628 ,"cy":81.8729}},
{"type":"Feature","geometry":{"type":"Point","coordinates":[130.401716,33.590355]},"properties":{"ID":63,"UrbArea":"Fukuoka urban area","CityName":"Fukuoka","Lat":33.590355,"Long":130.401716,"Country":"Japan","Landkm2000":343.1875,"Landkm2010":356.375,"Increase":13.1875,"AvgYrInc":0.377778,"Urbpop2000":1735889,"Urbpop2010":1992756,"urbpopchg":256867,"avyrgpopch":1.389555,"dens2000":5058.135859,"dens210":5591.739039,"expPpers":51.339798, "cx":671.8468 ,"cy":152.0765}},
{"type":"Feature","geometry":{"type":"Point","coordinates":[117.284124,34.205768]},"properties":{"ID":64,"UrbArea":"Xuzhou urban area","CityName":"Xuzhou","Lat":34.205768,"Long":117.284124,"Country":"China","Landkm2000":249.4375,"Landkm2010":325.375,"Increase":75.9375,"AvgYrInc":2.693332,"Urbpop2000":1483869,"Urbpop2010":1910886,"urbpopchg":427017,"avyrgpopch":2.561396,"dens2000":5948.860937,"dens210":5872.872839,"expPpers":177.832498, "cx":519.5601 ,"cy":144.9241}},
{"type":"Feature","geometry":{"type":"Point","coordinates":[109.840349,40.657378]},"properties":{"ID":65,"UrbArea":"Baotou urban area","CityName":"Baotou","Lat":40.657378,"Long":109.840349,"Country":"China","Landkm2000":272.9375,"Landkm2010":337.0625,"Increase":64.125,"AvgYrInc":2.132679,"Urbpop2000":1380563,"Urbpop2010":1895406,"urbpopchg":514843,"avyrgpopch":3.220178,"dens2000":5058.165331,"dens210":5623.30725,"expPpers":124.552533, "cx":433.1427 ,"cy":69.9427}},
{"type":"Feature","geometry":{"type":"Point","coordinates":[128.601445,35.871435]},"properties":{"ID":66,"UrbArea":"Taegu urban area","CityName":"Taegu","Lat":35.871435,"Long":128.601445,"Country":"Republic of Korea","Landkm2000":226,"Landkm2010":255.375,"Increase":29.375,"AvgYrInc":1.229477,"Urbpop2000":1589839,"Urbpop2010":1845485,"urbpopchg":255646,"avyrgpopch":1.502266,"dens2000":7034.685841,"dens210":7226.568771,"expPpers":114.904986, "cx":650.9468 ,"cy":125.5655}},
{"type":"Feature","geometry":{"type":"Point","coordinates":[112.45404,34.619683]},"properties":{"ID":67,"UrbArea":"Luoyang urban area","CityName":"Luoyang","Lat":34.619683,"Long":112.45404,"Country":"China","Landkm2000":144.0625,"Landkm2010":193,"Increase":48.9375,"AvgYrInc":2.967611,"Urbpop2000":1237071,"Urbpop2010":1841029,"urbpopchg":603958,"avyrgpopch":4.055874,"dens2000":8587.043818,"dens210":9539.010363,"expPpers":81.027985, "cx":463.4859 ,"cy":140.1135}},
{"type":"Feature","geometry":{"type":"Point","coordinates":[115.464806,38.873891]},"properties":{"ID":68,"UrbArea":"Baoding urban area","CityName":"Baoding","Lat":38.873891,"Long":115.464806,"Country":"China","Landkm2000":445.0625,"Landkm2010":494.375,"Increase":49.3125,"AvgYrInc":1.056336,"Urbpop2000":1537185,"Urbpop2010":1835688,"urbpopchg":298503,"avyrgpopch":1.790506,"dens2000":3453.863221,"dens210":3713.148925,"expPpers":165.199345, "cx":498.439 ,"cy":90.6706}},
{"type":"Feature","geometry":{"type":"Point","coordinates":[111.749181,40.842585]},"properties":{"ID":69,"UrbArea":"Huhehaote urban area","CityName":"Huhehaote","Lat":40.842585,"Long":111.749181,"Country":"China","Landkm2000":240.5625,"Landkm2010":290.6875,"Increase":50.125,"AvgYrInc":1.910714,"Urbpop2000":1249880,"Urbpop2010":1825047,"urbpopchg":575167,"avyrgpopch":3.858148,"dens2000":5195.656015,"dens210":6278.381423,"expPpers":87.148602, "cx":455.303 ,"cy":67.7902}},
{"type":"Feature","geometry":{"type":"Point","coordinates":[120.673648,24.147736]},"properties":{"ID":70,"UrbArea":"Taichung urban area","CityName":"Taichung","Lat":24.147736,"Long":120.673648,"Country":"Taiwan, China","Landkm2000":199.4375,"Landkm2010":243.875,"Increase":44.4375,"AvgYrInc":2.031917,"Urbpop2000":1641289,"Urbpop2010":1815569,"urbpopchg":174280,"avyrgpopch":1.014279,"dens2000":8229.590724,"dens210":7444.670425,"expPpers":254.977622, "cx":558.9102 ,"cy":261.8197}},
{"type":"Feature","geometry":{"type":"Point","coordinates":[108.366543,22.817002]},"properties":{"ID":71,"UrbArea":"Nanning urban area","CityName":"Nanning","Lat":22.817002,"Long":108.366543,"Country":"China","Landkm2000":176.4375,"Landkm2010":235.5,"Increase":59.0625,"AvgYrInc":2.929533,"Urbpop2000":1175617,"Urbpop2010":1799783,"urbpopchg":624166,"avyrgpopch":4.350715,"dens2000":6663.078994,"dens210":7642.390658,"expPpers":94.626269, "cx":416.0327 ,"cy":277.2857}},
{"type":"Feature","geometry":{"type":"Point","coordinates":[110.36949,-7.79558]},"properties":{"ID":72,"UrbArea":"Yogyakarta urban area","CityName":"Yogyakarta","Lat":-7.79558,"Long":110.36949,"Country":"Indonesia","Landkm2000":233.1875,"Landkm2010":233.625,"Increase":0.4375,"AvgYrInc":0.018746,"Urbpop2000":1352200,"Urbpop2010":1799090,"urbpopchg":446890,"avyrgpopch":2.896641,"dens2000":5798.767087,"dens210":7700.759765,"expPpers":0.978988, "cx":439.2857 ,"cy":633.0687}},
{"type":"Feature","geometry":{"type":"Point","coordinates":[121.266595,30.17078]},"properties":{"ID":73,"UrbArea":"Cixi urban area","CityName":"Cixi","Lat":30.17078,"Long":121.266595,"Country":"China","Landkm2000":187.0625,"Landkm2010":436.8125,"Increase":249.75,"AvgYrInc":8.850601,"Urbpop2000":1014606,"Urbpop2010":1747370,"urbpopchg":732764,"avyrgpopch":5.586585,"dens2000":5423.887738,"dens210":4000.274717,"expPpers":340.832792, "cx":565.7939 ,"cy":191.8192}},
{"type":"Feature","geometry":{"type":"Point","coordinates":[141.354376,43.062096]},"properties":{"ID":74,"UrbArea":"Sapporo urban area","CityName":"Sapporo","Lat":43.062096,"Long":141.354376,"Country":"Japan","Landkm2000":307.4375,"Landkm2010":314.9375,"Increase":7.5,"AvgYrInc":0.241315,"Urbpop2000":1464374,"Urbpop2010":1705112,"urbpopchg":240738,"avyrgpopch":1.533671,"dens2000":4763.159992,"dens210":5414.1282,"expPpers":31.154201, "cx":799 ,"cy":41.9948}},
{"type":"Feature","geometry":{"type":"Point","coordinates":[100.329761,5.414921]},"properties":{"ID":75,"UrbArea":"George Town urban area","CityName":"George","Lat":5.414921,"Long":100.329761,"Country":"Malaysia","Landkm2000":325.875,"Landkm2010":395.625,"Increase":69.75,"AvgYrInc":1.95846,"Urbpop2000":1107706,"Urbpop2010":1682629,"urbpopchg":574923,"avyrgpopch":4.269283,"dens2000":3399.17453,"dens210":4253.090679,"expPpers":121.320594, "cx":322.7309 ,"cy":479.5347}},
{"type":"Feature","geometry":{"type":"Point","coordinates":[113.300129,40.076763]},"properties":{"ID":76,"UrbArea":"Datong urban area","CityName":"Datong","Lat":40.076763,"Long":113.300129,"Country":"China","Landkm2000":324.625,"Landkm2010":350.8125,"Increase":26.1875,"AvgYrInc":0.778829,"Urbpop2000":1392065,"Urbpop2010":1661874,"urbpopchg":269809,"avyrgpopch":1.787362,"dens2000":4288.224875,"dens210":4737.214324,"expPpers":97.059401, "cx":473.3085 ,"cy":76.6907}},
{"type":"Feature","geometry":{"type":"Point","coordinates":[108.552316,-6.732023]},"properties":{"ID":77,"UrbArea":"Cirebon urban area","CityName":"Cirebon","Lat":-6.732023,"Long":108.552316,"Country":"Indonesia","Landkm2000":148.8125,"Landkm2010":171.0625,"Increase":22.25,"AvgYrInc":1.403172,"Urbpop2000":1132600,"Urbpop2010":1656403,"urbpopchg":523803,"avyrgpopch":3.8745,"dens2000":7610.919782,"dens210":9683.028133,"expPpers":42.477802, "cx":418.1894 ,"cy":620.7079}},
{"type":"Feature","geometry":{"type":"Point","coordinates":[118.356448,35.104672]},"properties":{"ID":78,"UrbArea":"Linyi urban area","CityName":"Linyi","Lat":35.104672,"Long":118.356448,"Country":"China","Landkm2000":245.25,"Landkm2010":348.375,"Increase":103.125,"AvgYrInc":3.572342,"Urbpop2000":1198264,"Urbpop2010":1655936,"urbpopchg":457672,"avyrgpopch":3.287818,"dens2000":4885.88787,"dens210":4753.314675,"expPpers":225.325124, "cx":532.009 ,"cy":134.4769}},
{"type":"Feature","geometry":{"type":"Point","coordinates":[104.762965,-2.954969]},"properties":{"ID":79,"UrbArea":"Palembang urban area","CityName":"Palembang","Lat":-2.954969,"Long":104.762965,"Country":"Indonesia","Landkm2000":198.8125,"Landkm2010":205.25,"Increase":6.4375,"AvgYrInc":0.319174,"Urbpop2000":1192519,"Urbpop2010":1602228,"urbpopchg":409709,"avyrgpopch":2.997314,"dens2000":5998.209368,"dens210":7806.226553,"expPpers":15.712371, "cx":374.1975 ,"cy":576.8106}},
{"type":"Feature","geometry":{"type":"Point","coordinates":[108.2,-7.333333]},"properties":{"ID":80,"UrbArea":"Tasikmalaya urban area","CityName":"Tasikmalaya","Lat":-7.333333,"Long":108.2,"Country":"Indonesia","Landkm2000":78.4375,"Landkm2010":93.3125,"Increase":14.875,"AvgYrInc":1.751685,"Urbpop2000":1060054,"Urbpop2010":1594737,"urbpopchg":534683,"avyrgpopch":4.168427,"dens2000":13514.632669,"dens210":17090.282652,"expPpers":27.820222, "cx":414.0993 ,"cy":627.6964}},
{"type":"Feature","geometry":{"type":"Point","coordinates":[119.432731,-5.147665]},"properties":{"ID":81,"UrbArea":"Makassar urban area","CityName":"Makassar","Lat":-5.147665,"Long":119.432731,"Country":"Indonesia","Landkm2000":113.0625,"Landkm2010":138.875,"Increase":25.8125,"AvgYrInc":2.077623,"Urbpop2000":1094912,"Urbpop2010":1591997,"urbpopchg":497085,"avyrgpopch":3.81409,"dens2000":9684.130459,"dens210":11463.524752,"expPpers":51.927739, "cx":544.504 ,"cy":602.2943}},
{"type":"Feature","geometry":{"type":"Point","coordinates":[114.538962,36.625657]},"properties":{"ID":82,"UrbArea":"Handan urban area","CityName":"Handan","Lat":36.625657,"Long":114.538962,"Country":"China","Landkm2000":236.875,"Landkm2010":252.5625,"Increase":15.6875,"AvgYrInc":0.643322,"Urbpop2000":1379549,"Urbpop2010":1590079,"urbpopchg":210530,"avyrgpopch":1.430404,"dens2000":5823.953562,"dens210":6295.784212,"expPpers":74.514321, "cx":487.6905 ,"cy":116.7999}},
{"type":"Feature","geometry":{"type":"Point","coordinates":[119.015288,33.61036]},"properties":{"ID":83,"UrbArea":"Huaiyin urban area","CityName":"Huaiyin","Lat":33.61036,"Long":119.015288,"Country":"China","Landkm2000":307.875,"Landkm2010":326.875,"Increase":19,"AvgYrInc":0.600636,"Urbpop2000":1367428,"Urbpop2010":1562746,"urbpopchg":195318,"avyrgpopch":1.344082,"dens2000":4441.503857,"dens210":4780.867304,"expPpers":97.277261, "cx":539.6577 ,"cy":151.844}},
{"type":"Feature","geometry":{"type":"Point","coordinates":[119.161756,36.706774]},"properties":{"ID":84,"UrbArea":"Weifang urban area","CityName":"Weifang","Lat":36.706774,"Long":119.161756,"Country":"China","Landkm2000":289.9375,"Landkm2010":318.75,"Increase":28.8125,"AvgYrInc":0.951919,"Urbpop2000":983235,"Urbpop2010":1550370,"urbpopchg":567135,"avyrgpopch":4.659294,"dens2000":3391.196379,"dens210":4863.905882,"expPpers":50.803601, "cx":541.3581 ,"cy":115.8571}},
{"type":"Feature","geometry":{"type":"Point","coordinates":[130.875216,33.883409]},"properties":{"ID":85,"UrbArea":"Kitakyushu urban area","CityName":"Kitakyushu","Lat":33.883409,"Long":130.875216,"Country":"Japan","Landkm2000":352.5625,"Landkm2010":371.6875,"Increase":19.125,"AvgYrInc":0.529653,"Urbpop2000":1355953,"Urbpop2010":1539317,"urbpopchg":183364,"avyrgpopch":1.27642,"dens2000":3845.993264,"dens210":4141.427947,"expPpers":104.300735, "cx":677.3438 ,"cy":148.6706}},
{"type":"Feature","geometry":{"type":"Point","coordinates":[123.885437,10.315699]},"properties":{"ID":86,"UrbArea":"Cebu urban area","CityName":"Cebu","Lat":10.315699,"Long":123.885437,"Country":"Philippines","Landkm2000":123.0625,"Landkm2010":161.4375,"Increase":38.375,"AvgYrInc":2.751429,"Urbpop2000":1017447,"Urbpop2010":1527407,"urbpopchg":509960,"avyrgpopch":4.146409,"dens2000":8267.725749,"dens210":9461.289973,"expPpers":75.251, "cx":596.197 ,"cy":422.5773}},
{"type":"Feature","geometry":{"type":"Point","coordinates":[113.116255,36.195386]},"properties":{"ID":87,"UrbArea":"Changzhi urban area","CityName":"Changzhi","Lat":36.195386,"Long":113.116255,"Country":"China","Landkm2000":262.4375,"Landkm2010":303.8125,"Increase":41.375,"AvgYrInc":1.474746,"Urbpop2000":1237616,"Urbpop2010":1482858,"urbpopchg":245242,"avyrgpopch":1.824284,"dens2000":4715.850441,"dens210":4880.83275,"expPpers":168.710906, "cx":471.1738 ,"cy":121.8005}},
{"type":"Feature","geometry":{"type":"Point","coordinates":[115.216667,-8.65]},"properties":{"ID":88,"UrbArea":"Denpasar urban area","CityName":"Denpasar","Lat":-8.65,"Long":115.216667,"Country":"Indonesia","Landkm2000":210.0625,"Landkm2010":227.0625,"Increase":17,"AvgYrInc":0.781238,"Urbpop2000":1070835,"Urbpop2010":1473252,"urbpopchg":402417,"avyrgpopch":3.241772,"dens2000":5097.697114,"dens210":6488.310487,"expPpers":42.244736, "cx":495.5582 ,"cy":642.9989}},
{"type":"Feature","geometry":{"type":"Point","coordinates":[126.956821,37.394253]},"properties":{"ID":89,"UrbArea":"Anyang urban area","CityName":"Anyang","Lat":37.394253,"Long":126.956821,"Country":"China","Landkm2000":217.25,"Landkm2010":242,"Increase":24.75,"AvgYrInc":1.084731,"Urbpop2000":1227106,"Urbpop2010":1465481,"urbpopchg":238375,"avyrgpopch":1.791101,"dens2000":5648.359033,"dens210":6055.706612,"expPpers":103.828002, "cx":631.8538 ,"cy":107.8671}},
{"type":"Feature","geometry":{"type":"Point","coordinates":[113.241823,35.215893]},"properties":{"ID":90,"UrbArea":"Jiaozuo urban area","CityName":"Jiaozuo","Lat":35.215893,"Long":113.241823,"Country":"China","Landkm2000":259.25,"Landkm2010":327.875,"Increase":68.625,"AvgYrInc":2.376188,"Urbpop2000":1194575,"Urbpop2010":1430027,"urbpopchg":235452,"avyrgpopch":1.815309,"dens2000":4607.810993,"dens210":4361.500572,"expPpers":291.46068, "cx":472.6316 ,"cy":133.1843}},
{"type":"Feature","geometry":{"type":"Point","coordinates":[101.778224,36.617134]},"properties":{"ID":91,"UrbArea":"Xining urban area","CityName":"Xining","Lat":36.617134,"Long":101.778224,"Country":"China","Landkm2000":131.1875,"Landkm2010":214.5625,"Increase":83.375,"AvgYrInc":5.042763,"Urbpop2000":953312,"Urbpop2010":1425406,"urbpopchg":472094,"avyrgpopch":4.104704,"dens2000":7266.7899,"dens210":6643.31372,"expPpers":176.606777, "cx":339.5466 ,"cy":116.8989}},
{"type":"Feature","geometry":{"type":"Point","coordinates":[102.993934,13.027067]},"properties":{"ID":92,"UrbArea":"Phnom Penh urban area","CityName":"Phnom","Lat":13.027067,"Long":102.993934,"Country":"Cambodia","Landkm2000":107.375,"Landkm2010":163.5,"Increase":56.125,"AvgYrInc":4.294512,"Urbpop2000":917645,"Urbpop2010":1405381,"urbpopchg":487736,"avyrgpopch":4.354682,"dens2000":8546.169965,"dens210":8595.602446,"expPpers":115.072498, "cx":353.6603 ,"cy":391.0655}},
{"type":"Feature","geometry":{"type":"Point","coordinates":[116.656437,39.909965]},"properties":{"ID":93,"UrbArea":"Tongzhou urban area","CityName":"Tongzhou","Lat":39.909965,"Long":116.656437,"Country":"China","Landkm2000":83.8125,"Landkm2010":185.5625,"Increase":101.75,"AvgYrInc":8.272494,"Urbpop2000":788922,"Urbpop2010":1401105,"urbpopchg":612183,"avyrgpopch":5.911632,"dens2000":9412.939597,"dens210":7550.582688,"expPpers":166.20847, "cx":512.273 ,"cy":78.6292}},
{"type":"Feature","geometry":{"type":"Point","coordinates":[110.198293,20.044002]},"properties":{"ID":94,"UrbArea":"Haikou urban area","CityName":"Haikou","Lat":20.044002,"Long":110.198293,"Country":"China","Landkm2000":167.3125,"Landkm2010":194.5625,"Increase":27.25,"AvgYrInc":1.520343,"Urbpop2000":954719,"Urbpop2010":1395896,"urbpopchg":441177,"avyrgpopch":3.871822,"dens2000":5706.202465,"dens210":7174.537745,"expPpers":61.766593, "cx":437.2982 ,"cy":309.5138}},
{"type":"Feature","geometry":{"type":"Point","coordinates":[125.762524,39.039219]},"properties":{"ID":95,"UrbArea":"P'yongyang urban area","CityName":"P'yongyang","Lat":39.039219,"Long":125.762524,"Country":"Democratic People's Republic of Korea","Landkm2000":124.5,"Landkm2010":132.9375,"Increase":8.4375,"AvgYrInc":0.657888,"Urbpop2000":1236843,"Urbpop2010":1393413,"urbpopchg":156570,"avyrgpopch":1.199072,"dens2000":9934.481928,"dens210":10481.715092,"expPpers":53.889634, "cx":617.9888 ,"cy":88.7492}},
{"type":"Feature","geometry":{"type":"Point","coordinates":[111.916712,37.026945]},"properties":{"ID":96,"UrbArea":"Jiexiu urban area","CityName":"Jiexiu","Lat":37.026945,"Long":111.916712,"Country":"China","Landkm2000":344.4375,"Landkm2010":412.625,"Increase":68.1875,"AvgYrInc":1.822677,"Urbpop2000":1190879,"Urbpop2010":1383251,"urbpopchg":192372,"avyrgpopch":1.508716,"dens2000":3457.460352,"dens210":3352.319903,"expPpers":354.45647, "cx":457.2479 ,"cy":112.136}},
{"type":"Feature","geometry":{"type":"Point","coordinates":[121.447935,37.463822]},"properties":{"ID":97,"UrbArea":"Yantai urban area","CityName":"Yantai","Lat":37.463822,"Long":121.447935,"Country":"China","Landkm2000":199.625,"Landkm2010":245.6875,"Increase":46.0625,"AvgYrInc":2.097901,"Urbpop2000":909546,"Urbpop2010":1364297,"urbpopchg":454751,"avyrgpopch":4.137806,"dens2000":4556.273012,"dens210":5552.976851,"expPpers":101.291696, "cx":567.8992 ,"cy":107.0586}},
{"type":"Feature","geometry":{"type":"Point","coordinates":[113.700931,-8.173312]},"properties":{"ID":98,"UrbArea":"Jember urban area","CityName":"Jember","Lat":-8.173312,"Long":113.700931,"Country":"Indonesia","Landkm2000":227.25,"Landkm2010":230.625,"Increase":3.375,"AvgYrInc":0.147532,"Urbpop2000":1021160,"Urbpop2010":1358347,"urbpopchg":337187,"avyrgpopch":2.894389,"dens2000":4493.553355,"dens210":5889.851491,"expPpers":10.009283, "cx":477.9615 ,"cy":637.4588}},
{"type":"Feature","geometry":{"type":"Point","coordinates":[106.9272,-6.9196]},"properties":{"ID":99,"UrbArea":"Sukabumi urban area","CityName":"Sukabumi","Lat":-6.9196,"Long":106.9272,"Country":"Indonesia","Landkm2000":76.1875,"Landkm2010":95.625,"Increase":19.4375,"AvgYrInc":2.298384,"Urbpop2000":895799,"Urbpop2010":1357948,"urbpopchg":462149,"avyrgpopch":4.247886,"dens2000":11757.821165,"dens210":14200.763399,"expPpers":42.058946, "cx":399.3229 ,"cy":622.888}},
{"type":"Feature","geometry":{"type":"Point","coordinates":[109.415953,24.325502]},"properties":{"ID":100,"UrbArea":"Liuzhou urban area","CityName":"Liuzhou","Lat":24.325502,"Long":109.415953,"Country":"China","Landkm2000":118.8125,"Landkm2010":154.3125,"Increase":35.5,"AvgYrInc":2.648805,"Urbpop2000":1035513,"Urbpop2010":1329755,"urbpopchg":294242,"avyrgpopch":2.532514,"dens2000":8715.522357,"dens210":8617.286351,"expPpers":120.64899, "cx":428.2157 ,"cy":259.7537}},
{"type":"Feature","geometry":{"type":"Point","coordinates":[103.761815,1.485368]},"properties":{"ID":101,"UrbArea":"Johor Bahru urban area","CityName":"Johor","Lat":1.485368,"Long":103.761815,"Country":"Malaysia","Landkm2000":271.1875,"Landkm2010":416.3125,"Increase":145.125,"AvgYrInc":4.379444,"Urbpop2000":820597,"Urbpop2010":1297170,"urbpopchg":476573,"avyrgpopch":4.68554,"dens2000":3025.939617,"dens210":3115.856478,"expPpers":304.517881, "cx":362.5748 ,"cy":525.2045}},
{"type":"Feature","geometry":{"type":"Point","coordinates":[119.007777,25.454085]},"properties":{"ID":102,"UrbArea":"Putian urban area","CityName":"Putian","Lat":25.454085,"Long":119.007777,"Country":"China","Landkm2000":290.6875,"Landkm2010":354.75,"Increase":64.0625,"AvgYrInc":2.011611,"Urbpop2000":1106458,"Urbpop2010":1278041,"urbpopchg":171583,"avyrgpopch":1.452087,"dens2000":3806.348742,"dens210":3602.652572,"expPpers":373.36158, "cx":539.5705 ,"cy":246.6372}},
{"type":"Feature","geometry":{"type":"Point","coordinates":[126.549572,43.837883]},"properties":{"ID":103,"UrbArea":"Jilin urban area","CityName":"Jilin","Lat":43.837883,"Long":126.549572,"Country":"China","Landkm2000":270.625,"Landkm2010":292.0625,"Increase":21.4375,"AvgYrInc":0.76525,"Urbpop2000":1199748,"Urbpop2010":1261145,"urbpopchg":61397,"avyrgpopch":0.500333,"dens2000":4433.248961,"dens210":4318.065483,"expPpers":349.162011, "cx":627.1259 ,"cy":32.9785}},
{"type":"Feature","geometry":{"type":"Point","coordinates":[112.011917,-7.816611]},"properties":{"ID":104,"UrbArea":"Kediri  urban area","CityName":"Kediri","Lat":-7.816611,"Long":112.011917,"Country":"Indonesia","Landkm2000":247.875,"Landkm2010":273.9375,"Increase":26.0625,"AvgYrInc":1.004768,"Urbpop2000":903834,"Urbpop2010":1256399,"urbpopchg":352565,"avyrgpopch":3.348432,"dens2000":3646.329803,"dens210":4586.443988,"expPpers":73.922539, "cx":458.3532 ,"cy":633.3132}},
{"type":"Feature","geometry":{"type":"Point","coordinates":[110.925456,21.662999]},"properties":{"ID":105,"UrbArea":"Maoming urban area","CityName":"Maoming","Lat":21.662999,"Long":110.925456,"Country":"China","Landkm2000":134.6875,"Landkm2010":151.6875,"Increase":17,"AvgYrInc":1.195745,"Urbpop2000":982408,"Urbpop2010":1250113,"urbpopchg":267705,"avyrgpopch":2.439096,"dens2000":7293.98051,"dens210":8241.37124,"expPpers":63.502736, "cx":445.7401 ,"cy":290.6976}},
{"type":"Feature","geometry":{"type":"Point","coordinates":[119.600493,39.935385]},"properties":{"ID":106,"UrbArea":"Qinhuangdao urban area","CityName":"Qinhuangdao","Lat":39.935385,"Long":119.600493,"Country":"China","Landkm2000":255.6875,"Landkm2010":305.6875,"Increase":50,"AvgYrInc":1.802119,"Urbpop2000":967441,"Urbpop2010":1235994,"urbpopchg":268553,"avyrgpopch":2.480017,"dens2000":3783.685163,"dens210":4043.325291,"expPpers":186.182988, "cx":546.4516 ,"cy":78.3338}},
{"type":"Feature","geometry":{"type":"Point","coordinates":[122.235418,40.667012]},"properties":{"ID":107,"UrbArea":"Yingkou urban area","CityName":"Yingkou","Lat":40.667012,"Long":122.235418,"Country":"China","Landkm2000":405.1875,"Landkm2010":442.1875,"Increase":37,"AvgYrInc":0.87767,"Urbpop2000":1117204,"Urbpop2010":1228493,"urbpopchg":111289,"avyrgpopch":0.954114,"dens2000":2757.25189,"dens210":2778.217385,"expPpers":332.467719, "cx":577.0413 ,"cy":69.8307}},
{"type":"Feature","geometry":{"type":"Point","coordinates":[114.504844,37.070589]},"properties":{"ID":108,"UrbArea":"Xingtai urban area","CityName":"Xingtai","Lat":37.070589,"Long":114.504844,"Country":"China","Landkm2000":186.25,"Landkm2010":203.4375,"Increase":17.1875,"AvgYrInc":0.886597,"Urbpop2000":1046755,"Urbpop2010":1221274,"urbpopchg":174519,"avyrgpopch":1.553947,"dens2000":5620.161074,"dens210":6003.190169,"expPpers":98.484979, "cx":487.2944 ,"cy":111.6288}},
{"type":"Feature","geometry":{"type":"Point","coordinates":[106.688084,20.844911]},"properties":{"ID":109,"UrbArea":"Hai Phong urban area","CityName":"Hai","Lat":20.844911,"Long":106.688084,"Country":"Vietnam","Landkm2000":161.375,"Landkm2010":198.75,"Increase":37.375,"AvgYrInc":2.105018,"Urbpop2000":817540,"Urbpop2010":1221115,"urbpopchg":403575,"avyrgpopch":4.093774,"dens2000":5066.088304,"dens210":6143.974843,"expPpers":92.6098, "cx":396.5469 ,"cy":300.2056}},
{"type":"Feature","geometry":{"type":"Point","coordinates":[106.230909,38.487194]},"properties":{"ID":110,"UrbArea":"Yinchuan urban area","CityName":"Yinchuan","Lat":38.487194,"Long":106.230909,"Country":"China","Landkm2000":71.625,"Landkm2010":156.9375,"Increase":85.3125,"AvgYrInc":8.159883,"Urbpop2000":640602,"Urbpop2010":1214059,"urbpopchg":573457,"avyrgpopch":6.60195,"dens2000":8943.832461,"dens210":7735.939466,"expPpers":148.768783, "cx":391.2394 ,"cy":95.1649}},
{"type":"Feature","geometry":{"type":"Point","coordinates":[123.418262,41.85509]},"properties":{"ID":111,"UrbArea":"Lingxi urban area","CityName":"Lingxi","Lat":41.85509,"Long":123.418262,"Country":"China","Landkm2000":73.375,"Landkm2010":143.3125,"Increase":69.9375,"AvgYrInc":6.923606,"Urbpop2000":837401,"Urbpop2010":1201395,"urbpopchg":363994,"avyrgpopch":3.675284,"dens2000":11412.620102,"dens210":8383.044047,"expPpers":192.139156, "cx":590.7734 ,"cy":56.0228}},
{"type":"Feature","geometry":{"type":"Point","coordinates":[112.944049,27.829738]},"properties":{"ID":112,"UrbArea":"Xiangtan urban area","CityName":"Xiangtan","Lat":27.829738,"Long":112.944049,"Country":"China","Landkm2000":73.8125,"Landkm2010":156.1875,"Increase":82.375,"AvgYrInc":7.78334,"Urbpop2000":675776,"Urbpop2010":1192105,"urbpopchg":516329,"avyrgpopch":5.840327,"dens2000":9155.305673,"dens210":7632.52501,"expPpers":159.539751, "cx":469.1746 ,"cy":219.0271}},
{"type":"Feature","geometry":{"type":"Point","coordinates":[120.284939,31.920658]},"properties":{"ID":113,"UrbArea":"Jiangyin urban area","CityName":"Jiangyin","Lat":31.920658,"Long":120.284939,"Country":"China","Landkm2000":103.75,"Landkm2010":279.875,"Increase":176.125,"AvgYrInc":10.432677,"Urbpop2000":710260,"Urbpop2010":1190623,"urbpopchg":480363,"avyrgpopch":5.301775,"dens2000":6845.879518,"dens210":4254.124163,"expPpers":366.649804, "cx":554.3976 ,"cy":171.4819}},
{"type":"Feature","geometry":{"type":"Point","coordinates":[125.103784,46.58931]},"properties":{"ID":114,"UrbArea":"Daqing urban area","CityName":"Daqing","Lat":46.58931,"Long":125.103784,"Country":"China","Landkm2000":235.5625,"Landkm2010":252.625,"Increase":17.0625,"AvgYrInc":0.70175,"Urbpop2000":941134,"Urbpop2010":1188452,"urbpopchg":247318,"avyrgpopch":2.360646,"dens2000":3995.262404,"dens210":4704.411677,"expPpers":68.990126, "cx":610.3412 ,"cy":1.0011}},
{"type":"Feature","geometry":{"type":"Point","coordinates":[121.782769,39.05046]},"properties":{"ID":115,"UrbArea":"Jinzhou urban area","CityName":"Jinzhou","Lat":39.05046,"Long":121.782769,"Country":"China","Landkm2000":236.5625,"Landkm2010":261.875,"Increase":25.3125,"AvgYrInc":1.021733,"Urbpop2000":992998,"Urbpop2010":1153086,"urbpopchg":160088,"avyrgpopch":1.505911,"dens2000":4197.613738,"dens210":4403.192363,"expPpers":158.116161, "cx":571.7864 ,"cy":88.6185}},
{"type":"Feature","geometry":{"type":"Point","coordinates":[114.886335,40.767545]},"properties":{"ID":116,"UrbArea":"Zhangjiakou urban area","CityName":"Zhangjiakou","Lat":40.767545,"Long":114.886335,"Country":"China","Landkm2000":226,"Landkm2010":244.75,"Increase":18.75,"AvgYrInc":0.800208,"Urbpop2000":995515,"Urbpop2010":1151806,"urbpopchg":156291,"avyrgpopch":1.468947,"dens2000":4404.933628,"dens210":4706.051073,"expPpers":119.96852, "cx":491.7233 ,"cy":68.6623}},
{"type":"Feature","geometry":{"type":"Point","coordinates":[107.908699,-7.227906]},"properties":{"ID":117,"UrbArea":"Garut urban area","CityName":"Garut","Lat":-7.227906,"Long":107.908699,"Country":"Indonesia","Landkm2000":33.875,"Landkm2010":45.9375,"Increase":12.0625,"AvgYrInc":3.092912,"Urbpop2000":666347,"Urbpop2010":1136920,"urbpopchg":470573,"avyrgpopch":5.487973,"dens2000":19670.760148,"dens210":24749.278912,"expPpers":25.633642, "cx":410.7175 ,"cy":626.4712}},
{"type":"Feature","geometry":{"type":"Point","coordinates":[96.083333,21.975]},"properties":{"ID":118,"UrbArea":"Mandalay urban area","CityName":"Mandalay","Lat":21.975,"Long":96.083333,"Country":"Myanmar","Landkm2000":111.4375,"Landkm2010":129.8125,"Increase":18.375,"AvgYrInc":1.537979,"Urbpop2000":821889,"Urbpop2010":1130511,"urbpopchg":308622,"avyrgpopch":3.239564,"dens2000":7375.335951,"dens210":8708.79923,"expPpers":59.538853, "cx":273.4327 ,"cy":287.0715}},
{"type":"Feature","geometry":{"type":"Point","coordinates":[140.869356,38.268215]},"properties":{"ID":119,"UrbArea":"Sendai urban area","CityName":"Sendai","Lat":38.268215,"Long":140.869356,"Country":"Japan","Landkm2000":237.3125,"Landkm2010":251.9375,"Increase":14.625,"AvgYrInc":0.599824,"Urbpop2000":967641,"Urbpop2010":1118370,"urbpopchg":150729,"avyrgpopch":1.458193,"dens2000":4077.496971,"dens210":4439.077152,"expPpers":97.028442, "cx":793.3692 ,"cy":97.7099}},
{"type":"Feature","geometry":{"type":"Point","coordinates":[107.436843,-6.403425]},"properties":{"ID":120,"UrbArea":"Cikampek urban area","CityName":"Cikampek","Lat":-6.403425,"Long":107.436843,"Country":"Indonesia","Landkm2000":91.875,"Landkm2010":105.75,"Increase":13.875,"AvgYrInc":1.416426,"Urbpop2000":762106,"Urbpop2010":1116340,"urbpopchg":354234,"avyrgpopch":3.891044,"dens2000":8295.031293,"dens210":10556.406619,"expPpers":39.169024, "cx":405.2395 ,"cy":616.8889}},
{"type":"Feature","geometry":{"type":"Point","coordinates":[114.307583,34.797282]},"properties":{"ID":121,"UrbArea":"Kaifeng urban area","CityName":"Kaifeng","Lat":34.797282,"Long":114.307583,"Country":"China","Landkm2000":192.75,"Landkm2010":202.4375,"Increase":9.6875,"AvgYrInc":0.491576,"Urbpop2000":992299,"Urbpop2010":1096110,"urbpopchg":103811,"avyrgpopch":0.99995,"dens2000":5148.114137,"dens210":5414.560049,"expPpers":93.318627, "cx":485.0043 ,"cy":138.0494}},
{"type":"Feature","geometry":{"type":"Point","coordinates":[124.354451,40.000787]},"properties":{"ID":122,"UrbArea":"Dandong urban area","CityName":"Dandong","Lat":40.000787,"Long":124.354451,"Country":"China","Landkm2000":158.3125,"Landkm2010":209.875,"Increase":51.5625,"AvgYrInc":2.859533,"Urbpop2000":885944,"Urbpop2010":1090500,"urbpopchg":204556,"avyrgpopch":2.099106,"dens2000":5596.172128,"dens210":5195.94997,"expPpers":252.070338, "cx":601.6419 ,"cy":77.5737}},
{"type":"Feature","geometry":{"type":"Point","coordinates":[116.798265,33.955845]},"properties":{"ID":123,"UrbArea":"Huaibei urban area","CityName":"Huaibei","Lat":33.955845,"Long":116.798265,"Country":"China","Landkm2000":173.9375,"Landkm2010":192.25,"Increase":18.3125,"AvgYrInc":1.006033,"Urbpop2000":794811,"Urbpop2010":1086694,"urbpopchg":291883,"avyrgpopch":3.177343,"dens2000":4569.520661,"dens210":5652.504551,"expPpers":62.73918, "cx":513.9195 ,"cy":147.8287}},
{"type":"Feature","geometry":{"type":"Point","coordinates":[118.886856,42.257817]},"properties":{"ID":124,"UrbArea":"Chifeng urban area","CityName":"Chifeng","Lat":42.257817,"Long":118.886856,"Country":"China","Landkm2000":188.75,"Landkm2010":246.75,"Increase":58,"AvgYrInc":2.715745,"Urbpop2000":901473,"Urbpop2010":1076946,"urbpopchg":175473,"avyrgpopch":1.794455,"dens2000":4776.015894,"dens210":4364.522796,"expPpers":330.535182, "cx":538.1667 ,"cy":51.3422}},
{"type":"Feature","geometry":{"type":"Point","coordinates":[107.130729,-6.817253]},"properties":{"ID":125,"UrbArea":"Cianjur urban area","CityName":"Cianjur","Lat":-6.817253,"Long":107.130729,"Country":"Indonesia","Landkm2000":60.375,"Landkm2010":69.1875,"Increase":8.8125,"AvgYrInc":1.371775,"Urbpop2000":715682,"Urbpop2010":1066550,"urbpopchg":350868,"avyrgpopch":4.070134,"dens2000":11853.94617,"dens210":15415.35682,"expPpers":25.116283, "cx":401.6857 ,"cy":621.6985}},
{"type":"Feature","geometry":{"type":"Point","coordinates":[126.852601,35.159545]},"properties":{"ID":126,"UrbArea":"Kwangju urban area","CityName":"Kwangju","Lat":35.159545,"Long":126.852601,"Country":"Republic of Korea","Landkm2000":86.6875,"Landkm2010":107.6875,"Increase":21,"AvgYrInc":2.192937,"Urbpop2000":875400,"Urbpop2010":1037511,"urbpopchg":162111,"avyrgpopch":1.713504,"dens2000":10098.341745,"dens210":9634.460824,"expPpers":129.54087, "cx":630.6438 ,"cy":133.8392}},
{"type":"Feature","geometry":{"type":"Point","coordinates":[116.999933,32.625478]},"properties":{"ID":127,"UrbArea":"Huainan urban area","CityName":"Huainan","Lat":32.625478,"Long":116.999933,"Country":"China","Landkm2000":117.125,"Landkm2010":122.1875,"Increase":5.0625,"AvgYrInc":0.424047,"Urbpop2000":760337,"Urbpop2010":1028920,"urbpopchg":268583,"avyrgpopch":3.071251,"dens2000":6491.671291,"dens210":8420.828645,"expPpers":18.848922, "cx":516.2608 ,"cy":163.2904}},
{"type":"Feature","geometry":{"type":"Point","coordinates":[120.752503,31.653686]},"properties":{"ID":128,"UrbArea":"Changshu urban area","CityName":"Changshu","Lat":31.653686,"Long":120.752503,"Country":"China","Landkm2000":87.25,"Landkm2010":244.125,"Increase":156.875,"AvgYrInc":10.83698,"Urbpop2000":514981,"Urbpop2010":1013254,"urbpopchg":498273,"avyrgpopch":7.002201,"dens2000":5902.361032,"dens210":4150.554019,"expPpers":314.837449, "cx":559.8257 ,"cy":174.5847}},
{"type":"Feature","geometry":{"type":"Point","coordinates":[120.047651,28.888555]},"properties":{"ID":129,"UrbArea":"Yungkang urban area","CityName":"Yungkang","Lat":28.888555,"Long":120.047651,"Country":"Taiwan, China","Landkm2000":215.75,"Landkm2010":226.3125,"Increase":10.5625,"AvgYrInc":0.479109,"Urbpop2000":966804,"Urbpop2010":1010274,"urbpopchg":43470,"avyrgpopch":0.440779,"dens2000":4481.130939,"dens210":4464.06628,"expPpers":242.983667, "cx":551.6428 ,"cy":206.7214}},
{"type":"Feature","geometry":{"type":"Point","coordinates":[109.023521,-7.698299]},"properties":{"ID":130,"UrbArea":"Cilacap urban area","CityName":"Cilacap","Lat":-7.698299,"Long":109.023521,"Country":"Indonesia","Landkm2000":93.875,"Landkm2010":100.9375,"Increase":7.0625,"AvgYrInc":0.728011,"Urbpop2000":720831,"Urbpop2010":1007170,"urbpopchg":286339,"avyrgpopch":3.401522,"dens2000":7678.625832,"dens210":9978.154799,"expPpers":24.66482, "cx":423.6598 ,"cy":631.9381}},
{"type":"Feature","geometry":{"type":"Point","coordinates":[110.359377,21.270708]},"properties":{"ID":131,"UrbArea":"Zhanjiang urban area","CityName":"Zhanjiang","Lat":21.270708,"Long":110.359377,"Country":"China","Landkm2000":103.3125,"Landkm2010":129.875,"Increase":26.5625,"AvgYrInc":2.314519,"Urbpop2000":728541,"Urbpop2010":1001648,"urbpopchg":273107,"avyrgpopch":3.234798,"dens2000":7051.818512,"dens210":7712.400385,"expPpers":97.260414, "cx":439.1682 ,"cy":295.2569}},
{"type":"Feature","geometry":{"type":"Point","coordinates":[77.21667,28.66667]},"properties":{"ID":132,"UrbArea":"Delhi urban area","CityName":"Delhi","Lat":28.66667,"Long":77.21667,"Country":"India","Landkm2000":0.0,"Landkm2010":0.0,"Increase":0.5625,"AvgYrInc":0.314519,"Urbpop2000":  15732000,"Urbpop2010":21935000,"urbpopchg":  6203000,"avyrgpopch":0.234798,"dens2000":0.818512,"dens210":0.400385,"expPpers":0.260414, "cx":54.403 ,"cy":209.3001}},
{"type":"Feature","geometry":{"type":"Point","coordinates":[72.880838,19.073975]},"properties":{"ID":133,"UrbArea":"Mumbai (Bombay) urban area","CityName":"Mumbai (Bombay)","Lat":21.270708,"Long":72.880838,"Country":"India","Landkm2000":0,"Landkm2010":0.875,"Increase":0.5625,"AvgYrInc":0.314519,"Urbpop2000":  16367000,"Urbpop2010": 19422000,"urbpopchg":3055000,"avyrgpopch":0.234798,"dens2000":0.818512,"dens210":0.400385,"expPpers":0.260414, "cx":4.0668 ,"cy":320.7876}},
{"type":"Feature","geometry":{"type":"Point","coordinates":[88.356045,22.533455]},"properties":{"ID":134,"UrbArea":"Kolkata (Calcutta) urban area","CityName":"Kolkata (Calcutta)","Lat":22.533455,"Long":88.356045,"Country":"India","Landkm2000":0,"Landkm2010":0.875,"Increase":0.5625,"AvgYrInc":0.314519,"Urbpop2000":  13058000,"Urbpop2010":  14283000,"urbpopchg":    1225000,"avyrgpopch":0.234798,"dens2000":0.818512,"dens210":0.400385,"expPpers":0.260414, "cx":183.7239 ,"cy":280.5811}},
{"type":"Feature","geometry":{"type":"Point","coordinates":[77.593690,12.971940]},"properties":{"ID":135,"UrbArea":"Bangalore urban area","CityName":"Bangalore","Lat":12.971940,"Long":77.593690,"Country":"India","Landkm2000":0.0,"Landkm2010":0.875,"Increase":0.5625,"AvgYrInc":0.314519,"Urbpop2000":    5567000,"Urbpop2010":  8275000,"urbpopchg":    2708000,"avyrgpopch":0.234798,"dens2000":0.818512,"dens210":0.400385,"expPpers":0.260414, "cx":58.78 ,"cy":391.7062}},
{"type":"Feature","geometry":{"type":"Point","coordinates":[80.248750,13.053091]},"properties":{"ID":136,"UrbArea":"Chennai (Madras) urban area","CityName":"Chennai (Madras)","Lat":13.053091,"Long":80.248750,"Country":"India","Landkm2000":0.0,"Landkm2010":0.875,"Increase":0.5625,"AvgYrInc":0.314519,"Urbpop2000":  6353000,"Urbpop2010":  8523000,"urbpopchg":    2170000,"avyrgpopch":0.234798,"dens2000":0.818512,"dens210":0.400385,"expPpers":0.260414, "cx":89.6035 ,"cy":390.763}},
{"type":"Feature","geometry":{"type":"Point","coordinates":[78.474440,17.375280]},"properties":{"ID":137,"UrbArea":"Hyderabad urban area","CityName":"Hyderabad","Lat":17.375280,"Long":78.474440,"Country":"India","Landkm2000":0.0,"Landkm2010":0.875,"Increase":0.5625,"AvgYrInc":0.314519,"Urbpop2000":  5445000,"Urbpop2010":  7578000,"urbpopchg":  2132000,"avyrgpopch":0.234798,"dens2000":0.818512,"dens210":0.400385,"expPpers":0.260414, "cx":69.0049 ,"cy":340.53}},
{"type":"Feature","geometry":{"type":"Point","coordinates":[72.616670,23.033330]},"properties":{"ID":138,"UrbArea":"Ahmadabad urban area","CityName":"Ahmadabad","Lat":23.033330,"Long":72.616670,"Country":"India","Landkm2000":0.0,"Landkm2010":0.875,"Increase":0.5625,"AvgYrInc":0.314519,"Urbpop2000":  4427000,"Urbpop2010":  6210000,"urbpopchg":  1783000,"avyrgpopch":0.234798,"dens2000":0.818512,"dens210":0.400385,"expPpers":0.260414, "cx":1 ,"cy":274.7715}},
{"type":"Feature","geometry":{"type":"Point","coordinates":[72.833330,21.166670]},"properties":{"ID":139,"UrbArea":"Surat urban area","CityName":"Surat","Lat":21.166670,"Long":72.833330,"Country":"India","Landkm2000":0.0,"Landkm2010":0.875,"Increase":0.5625,"AvgYrInc":0.314519,"Urbpop2000":  2699000,"Urbpop2010":  4438000,"urbpopchg":  1740000,"avyrgpopch":0.234798,"dens2000":0.818512,"dens210":0.400385,"expPpers":0.260414, "cx":3.5153 ,"cy":296.466}}
]}
